{
  "regions": [
    "Northwest",
    "Northeast", 
    "Delta",
    "Central",
    "Southwest",
    "Pine Belt",
    "Gulf Coast West",
    "Gulf Coast East"
  ],
  "counties": [
    {"fips": "28001", "name": "Adams", "lat": 31.4867, "lon": -91.3546, "region": "Southwest", "seat": "Natchez"},
    {"fips": "28003", "name": "Alcorn", "lat": 34.8808, "lon": -88.5806, "region": "Northeast", "seat": "Corinth"},
    {"fips": "28005", "name": "Amite", "lat": 31.1742, "lon": -90.8043, "region": "Southwest", "seat": "Liberty"},
    {"fips": "28007", "name": "Attala", "lat": 33.0867, "lon": -89.5811, "region": "Central", "seat": "Kosciusko"},
    {"fips": "28009", "name": "Benton", "lat": 34.8175, "lon": -89.1892, "region": "Northeast", "seat": "Ashland"},
    {"fips": "28011", "name": "Bolivar", "lat": 33.7956, "lon": -90.8781, "region": "Delta", "seat": "Cleveland"},
    {"fips": "28013", "name": "Calhoun", "lat": 33.9375, "lon": -89.3350, "region": "Northeast", "seat": "Pittsboro"},
    {"fips": "28015", "name": "Carroll", "lat": 33.4483, "lon": -89.9203, "region": "Delta", "seat": "Carrollton"},
    {"fips": "28017", "name": "Chickasaw", "lat": 33.9208, "lon": -88.9469, "region": "Northeast", "seat": "Houston"},
    {"fips": "28019", "name": "Choctaw", "lat": 33.3475, "lon": -89.2508, "region": "Central", "seat": "Ackerman"},
    {"fips": "28021", "name": "Claiborne", "lat": 31.9742, "lon": -90.9128, "region": "Southwest", "seat": "Port Gibson"},
    {"fips": "28023", "name": "Clarke", "lat": 32.0417, "lon": -88.6911, "region": "Pine Belt", "seat": "Quitman"},
    {"fips": "28025", "name": "Clay", "lat": 33.6558, "lon": -88.7794, "region": "Northeast", "seat": "West Point"},
    {"fips": "28027", "name": "Coahoma", "lat": 34.2281, "lon": -90.6039, "region": "Delta", "seat": "Clarksdale"},
    {"fips": "28029", "name": "Copiah", "lat": 31.8672, "lon": -90.4483, "region": "Southwest", "seat": "Hazlehurst"},
    {"fips": "28031", "name": "Covington", "lat": 31.6331, "lon": -89.5472, "region": "Pine Belt", "seat": "Collins"},
    {"fips": "28033", "name": "DeSoto", "lat": 34.8756, "lon": -89.9917, "region": "Northwest", "seat": "Hernando"},
    {"fips": "28035", "name": "Forrest", "lat": 31.1892, "lon": -89.2597, "region": "Pine Belt", "seat": "Hattiesburg"},
    {"fips": "28037", "name": "Franklin", "lat": 31.4775, "lon": -90.8972, "region": "Southwest", "seat": "Meadville"},
    {"fips": "28039", "name": "George", "lat": 30.8633, "lon": -88.6394, "region": "Gulf Coast East", "seat": "Lucedale"},
    {"fips": "28041", "name": "Greene", "lat": 31.2142, "lon": -88.6383, "region": "Pine Belt", "seat": "Leakesville"},
    {"fips": "28043", "name": "Grenada", "lat": 33.7692, "lon": -89.8017, "region": "Delta", "seat": "Grenada"},
    {"fips": "28045", "name": "Hancock", "lat": 30.3936, "lon": -89.4750, "region": "Gulf Coast West", "seat": "Bay St. Louis"},
    {"fips": "28047", "name": "Harrison", "lat": 30.4147, "lon": -89.0803, "region": "Gulf Coast West", "seat": "Gulfport"},
    {"fips": "28049", "name": "Hinds", "lat": 32.2664, "lon": -90.4475, "region": "Central", "seat": "Jackson"},
    {"fips": "28051", "name": "Holmes", "lat": 33.1231, "lon": -90.0917, "region": "Delta", "seat": "Lexington"},
    {"fips": "28053", "name": "Humphreys", "lat": 33.1289, "lon": -90.5286, "region": "Delta", "seat": "Belzoni"},
    {"fips": "28055", "name": "Issaquena", "lat": 32.7414, "lon": -90.9892, "region": "Delta", "seat": "Mayersville"},
    {"fips": "28057", "name": "Itawamba", "lat": 34.2833, "lon": -88.3603, "region": "Northeast", "seat": "Fulton"},
    {"fips": "28059", "name": "Jackson", "lat": 30.4558, "lon": -88.6175, "region": "Gulf Coast East", "seat": "Pascagoula"},
    {"fips": "28061", "name": "Jasper", "lat": 32.0683, "lon": -89.1186, "region": "Pine Belt", "seat": "Bay Springs"},
    {"fips": "28063", "name": "Jefferson", "lat": 31.7339, "lon": -91.0375, "region": "Southwest", "seat": "Fayette"},
    {"fips": "28065", "name": "Jefferson Davis", "lat": 31.5689, "lon": -89.8250, "region": "Pine Belt", "seat": "Prentiss"},
    {"fips": "28067", "name": "Jones", "lat": 31.6228, "lon": -89.1686, "region": "Pine Belt", "seat": "Ellisville"},
    {"fips": "28069", "name": "Kemper", "lat": 32.7547, "lon": -88.6447, "region": "Central", "seat": "DeKalb"},
    {"fips": "28071", "name": "Lafayette", "lat": 34.3558, "lon": -89.4906, "region": "Northeast", "seat": "Oxford"},
    {"fips": "28073", "name": "Lamar", "lat": 31.2103, "lon": -89.5211, "region": "Pine Belt", "seat": "Purvis"},
    {"fips": "28075", "name": "Lauderdale", "lat": 32.4044, "lon": -88.6683, "region": "Central", "seat": "Meridian"},
    {"fips": "28077", "name": "Lawrence", "lat": 31.5492, "lon": -90.1064, "region": "Southwest", "seat": "Monticello"},
    {"fips": "28079", "name": "Leake", "lat": 32.7533, "lon": -89.5261, "region": "Central", "seat": "Carthage"},
    {"fips": "28081", "name": "Lee", "lat": 34.2892, "lon": -88.6808, "region": "Northeast", "seat": "Tupelo"},
    {"fips": "28083", "name": "Leflore", "lat": 33.5522, "lon": -90.2983, "region": "Delta", "seat": "Greenwood"},
    {"fips": "28085", "name": "Lincoln", "lat": 31.5331, "lon": -90.4539, "region": "Southwest", "seat": "Brookhaven"},
    {"fips": "28087", "name": "Lowndes", "lat": 33.4708, "lon": -88.4408, "region": "Northeast", "seat": "Columbus"},
    {"fips": "28089", "name": "Madison", "lat": 32.6342, "lon": -90.0322, "region": "Central", "seat": "Canton"},
    {"fips": "28091", "name": "Marion", "lat": 31.2258, "lon": -89.8228, "region": "Pine Belt", "seat": "Columbia"},
    {"fips": "28093", "name": "Marshall", "lat": 34.7619, "lon": -89.5028, "region": "Northwest", "seat": "Holly Springs"},
    {"fips": "28095", "name": "Monroe", "lat": 33.8919, "lon": -88.4819, "region": "Northeast", "seat": "Aberdeen"},
    {"fips": "28097", "name": "Montgomery", "lat": 33.4939, "lon": -89.6172, "region": "Central", "seat": "Winona"},
    {"fips": "28099", "name": "Neshoba", "lat": 32.7533, "lon": -89.1172, "region": "Central", "seat": "Philadelphia"},
    {"fips": "28101", "name": "Newton", "lat": 32.4011, "lon": -89.1197, "region": "Central", "seat": "Decatur"},
    {"fips": "28103", "name": "Noxubee", "lat": 33.1083, "lon": -88.5672, "region": "Central", "seat": "Macon"},
    {"fips": "28105", "name": "Oktibbeha", "lat": 33.4231, "lon": -88.8775, "region": "Northeast", "seat": "Starkville"},
    {"fips": "28107", "name": "Panola", "lat": 34.3647, "lon": -89.9506, "region": "Northwest", "seat": "Batesville"},
    {"fips": "28109", "name": "Pearl River", "lat": 30.7733, "lon": -89.5911, "region": "Gulf Coast West", "seat": "Poplarville"},
    {"fips": "28111", "name": "Perry", "lat": 31.1717, "lon": -88.9917, "region": "Pine Belt", "seat": "New Augusta"},
    {"fips": "28113", "name": "Pike", "lat": 31.1750, "lon": -90.4036, "region": "Southwest", "seat": "Magnolia"},
    {"fips": "28115", "name": "Pontotoc", "lat": 34.2258, "lon": -89.0347, "region": "Northeast", "seat": "Pontotoc"},
    {"fips": "28117", "name": "Prentiss", "lat": 34.6194, "lon": -88.5192, "region": "Northeast", "seat": "Booneville"},
    {"fips": "28119", "name": "Quitman", "lat": 34.2517, "lon": -90.2878, "region": "Delta", "seat": "Marks"},
    {"fips": "28121", "name": "Rankin", "lat": 32.2647, "lon": -89.9469, "region": "Central", "seat": "Brandon"},
    {"fips": "28123", "name": "Scott", "lat": 32.4064, "lon": -89.5406, "region": "Central", "seat": "Forest"},
    {"fips": "28125", "name": "Sharkey", "lat": 32.8775, "lon": -90.8142, "region": "Delta", "seat": "Rolling Fork"},
    {"fips": "28127", "name": "Simpson", "lat": 31.9128, "lon": -89.9175, "region": "Central", "seat": "Mendenhall"},
    {"fips": "28129", "name": "Smith", "lat": 31.9892, "lon": -89.5039, "region": "Central", "seat": "Raleigh"},
    {"fips": "28131", "name": "Stone", "lat": 30.7892, "lon": -89.1183, "region": "Gulf Coast West", "seat": "Wiggins"},
    {"fips": "28133", "name": "Sunflower", "lat": 33.5489, "lon": -90.5647, "region": "Delta", "seat": "Indianola"},
    {"fips": "28135", "name": "Tallahatchie", "lat": 33.9506, "lon": -90.1731, "region": "Delta", "seat": "Charleston"},
    {"fips": "28137", "name": "Tate", "lat": 34.6506, "lon": -89.9439, "region": "Northwest", "seat": "Senatobia"},
    {"fips": "28139", "name": "Tippah", "lat": 34.7681, "lon": -88.9097, "region": "Northeast", "seat": "Ripley"},
    {"fips": "28141", "name": "Tishomingo", "lat": 34.7406, "lon": -88.2397, "region": "Northeast", "seat": "Iuka"},
    {"fips": "28143", "name": "Tunica", "lat": 34.6531, "lon": -90.3817, "region": "Northwest", "seat": "Tunica"},
    {"fips": "28145", "name": "Union", "lat": 34.4867, "lon": -89.0094, "region": "Northeast", "seat": "New Albany"},
    {"fips": "28147", "name": "Walthall", "lat": 31.1483, "lon": -90.1072, "region": "Southwest", "seat": "Tylertown"},
    {"fips": "28149", "name": "Warren", "lat": 32.3572, "lon": -90.8519, "region": "Central", "seat": "Vicksburg"},
    {"fips": "28151", "name": "Washington", "lat": 33.2833, "lon": -91.0017, "region": "Delta", "seat": "Greenville"},
    {"fips": "28153", "name": "Wayne", "lat": 31.6378, "lon": -88.6878, "region": "Pine Belt", "seat": "Waynesboro"},
    {"fips": "28155", "name": "Webster", "lat": 33.6119, "lon": -89.2867, "region": "Central", "seat": "Walthall"},
    {"fips": "28157", "name": "Wilkinson", "lat": 31.1572, "lon": -91.3097, "region": "Southwest", "seat": "Woodville"},
    {"fips": "28159", "name": "Winston", "lat": 33.0872, "lon": -89.0353, "region": "Central", "seat": "Louisville"},
    {"fips": "28161", "name": "Yalobusha", "lat": 34.0311, "lon": -89.7086, "region": "Delta", "seat": "Water Valley"},
    {"fips": "28163", "name": "Yazoo", "lat": 32.7811, "lon": -90.3928, "region": "Delta", "seat": "Yazoo City"}
  ]
}
